[
    {
        "state": "Antarctica",
        "stations": [
            {
                "city": "Casey Cape Poinsett",
                "url": "http://www.bom.gov.au/fwo/IDT60803/IDT60803.89610.json",
                "lat": " -65.84",
                "lon": " 113.07"
            },
            {
                "city": "Casey Haupt Nunatak",
                "url": "http://www.bom.gov.au/fwo/IDT60803/IDT60803.89815.json",
                "lat": " -66.58",
                "lon": " 110.69"
            },
            {
                "city": "Casey Law Dome",
                "url": "http://www.bom.gov.au/fwo/IDT60803/IDT60803.89811.json",
                "lat": " -66.73",
                "lon": " 112.83"
            },
            {
                "city": "Casey Skiway South",
                "url": "http://www.bom.gov.au/fwo/IDT60803/IDT60803.89809.json",
                "lat": " -66.28",
                "lon": " 110.76"
            },
            {
                "city": "Casey Snyder Rocks",
                "url": "http://www.bom.gov.au/fwo/IDT60803/IDT60803.89807.json",
                "lat": " -66.55",
                "lon": " 107.75"
            },
            {
                "city": "Casey Wilkins Runway",
                "url": "http://www.bom.gov.au/fwo/IDT60803/IDT60803.89615.json",
                "lat": " -66.68",
                "lon": " 111.53"
            },
            {
                "city": "Casey",
                "url": "http://www.bom.gov.au/fwo/IDT60803/IDT60803.89611.json",
                "lat": " -66.28",
                "lon": " 110.52"
            },
            {
                "city": "Davis Amery",
                "url": "http://www.bom.gov.au/fwo/IDT60803/IDT60803.89767.json",
                "lat": " -70.89",
                "lon": " 69.87 "
            },
            {
                "city": "Davis",
                "url": "http://www.bom.gov.au/fwo/IDT60803/IDT60803.89571.json",
                "lat": " -68.57",
                "lon": " 77.97 "
            },
            {
                "city": "Dumont D'urville",
                "url": "http://www.bom.gov.au/fwo/IDT60803/IDT60803.89642.json",
                "lat": " -66.66",
                "lon": " 140.01"
            },
            {
                "city": "Macquarie Island",
                "url": "http://www.bom.gov.au/fwo/IDT60803/IDT60803.94998.json",
                "lat": " -54.50",
                "lon": " 158.94"
            },
            {
                "city": "Mawson",
                "url": "http://www.bom.gov.au/fwo/IDT60803/IDT60803.89564.json",
                "lat": " -67.60",
                "lon": " 62.88 "
            },
            {
                "city": "McMurdo",
                "url": "http://www.bom.gov.au/fwo/IDT60803/IDT60803.89664.json",
                "lat": " -77.85",
                "lon": " 166.67"
            },
            {
                "city": "Mirnyj",
                "url": "http://www.bom.gov.au/fwo/IDT60803/IDT60803.89592.json",
                "lat": " -66.55",
                "lon": " 93.02 "
            },
            {
                "city": "Novolazarevskaja",
                "url": "http://www.bom.gov.au/fwo/IDT60803/IDT60803.89512.json",
                "lat": " -70.77",
                "lon": " 11.83 "
            },
            {
                "city": "Syowa",
                "url": "http://www.bom.gov.au/fwo/IDT60803/IDT60803.89532.json",
                "lat": " -69.00",
                "lon": " 39.58 "
            }
        ]
    },
    {
        "state": "Canberra",
        "stations": [
            {
                "city": "Batemans Bay",
                "url": "http://www.bom.gov.au/fwo/IDN60903/IDN60903.94941.json",
                "lat": " -35.72",
                "lon": " 150.19"
            },
            {
                "city": "Braidwood",
                "url": "http://www.bom.gov.au/fwo/IDN60903/IDN60903.94927.json",
                "lat": " -35.43",
                "lon": " 149.78"
            },
            {
                "city": "Cabramurra",
                "url": "http://www.bom.gov.au/fwo/IDN60903/IDN60903.95916.json",
                "lat": " -35.94",
                "lon": " 148.38"
            },
            {
                "city": "Canberra",
                "url": "http://www.bom.gov.au/fwo/IDN60903/IDN60903.94926.json",
                "lat": " -35.31",
                "lon": " 149.20"
            },
            {
                "city": "Cooma Airport",
                "url": "http://www.bom.gov.au/fwo/IDN60903/IDN60903.94921.json",
                "lat": " -36.29",
                "lon": " 148.97"
            },
            {
                "city": "Goulburn Airport",
                "url": "http://www.bom.gov.au/fwo/IDN60903/IDN60903.95716.json",
                "lat": " -34.81",
                "lon": " 149.73"
            },
            {
                "city": "Montague Island",
                "url": "http://www.bom.gov.au/fwo/IDN60903/IDN60903.94939.json",
                "lat": " -36.25",
                "lon": " 150.23"
            },
            {
                "city": "Moruya Airport",
                "url": "http://www.bom.gov.au/fwo/IDN60903/IDN60903.95937.json",
                "lat": " -35.90",
                "lon": " 150.14"
            },
            {
                "city": "Mount Ginini",
                "url": "http://www.bom.gov.au/fwo/IDN60903/IDN60903.95925.json",
                "lat": " -35.53",
                "lon": " 148.77"
            },
            {
                "city": "Narooma",
                "url": "http://www.bom.gov.au/fwo/IDN60903/IDN60903.95935.json",
                "lat": " -36.21",
                "lon": " 150.14"
            },
            {
                "city": "Nowra",
                "url": "http://www.bom.gov.au/fwo/IDN60903/IDN60903.94750.json",
                "lat": " -34.95",
                "lon": " 150.54"
            },
            {
                "city": "Perisher Valley",
                "url": "http://www.bom.gov.au/fwo/IDN60903/IDN60903.94915.json",
                "lat": " -36.41",
                "lon": " 148.41"
            },
            {
                "city": "Thredbo Top Station",
                "url": "http://www.bom.gov.au/fwo/IDN60903/IDN60903.95909.json",
                "lat": " -36.49",
                "lon": " 148.29"
            },
            {
                "city": "Tuggeranong",
                "url": "http://www.bom.gov.au/fwo/IDN60903/IDN60903.94925.json",
                "lat": " -35.42",
                "lon": " 149.09"
            },
            {
                "city": "Ulladulla",
                "url": "http://www.bom.gov.au/fwo/IDN60903/IDN60903.94938.json",
                "lat": " -35.36",
                "lon": " 150.48"
            },
            {
                "city": "Yass",
                "url": "http://www.bom.gov.au/fwo/IDN60903/IDN60903.95723.json",
                "lat": " -34.82",
                "lon": " 148.91"
            }
        ]
    },
    {
        "state": "New South Wales",
        "stations": [
            {
                "city": "Albion Park",
                "url": "http://www.bom.gov.au/fwo/IDN60801/IDN60801.95748.json",
                "lat": " -34.56",
                "lon": " 150.79"
            },
            {
                "city": "Albury",
                "url": "http://www.bom.gov.au/fwo/IDN60801/IDN60801.95896.json",
                "lat": " -36.07",
                "lon": " 146.95"
            },
            {
                "city": "Applethorpe",
                "url": "http://www.bom.gov.au/fwo/IDN60801/IDN60801.94553.json",
                "lat": " -28.62",
                "lon": " 151.95"
            },
            {
                "city": "Armidale Airport",
                "url": "http://www.bom.gov.au/fwo/IDN60801/IDN60801.95773.json",
                "lat": " -30.53",
                "lon": " 151.62"
            },
            {
                "city": "Armidale",
                "url": "http://www.bom.gov.au/fwo/IDN60801/IDN60801.94773.json",
                "lat": " -30.52",
                "lon": " 151.67"
            },
            {
                "city": "Badgerys Creek",
                "url": "http://www.bom.gov.au/fwo/IDN60801/IDN60801.94752.json",
                "lat": " -33.90",
                "lon": " 150.73"
            },
            {
                "city": "Ballina",
                "url": "http://www.bom.gov.au/fwo/IDN60801/IDN60801.94596.json",
                "lat": " -28.84",
                "lon": " 153.56"
            },
            {
                "city": "Balranald",
                "url": "http://www.bom.gov.au/fwo/IDN60801/IDN60801.94696.json",
                "lat": " -34.64",
                "lon": " 143.56"
            },
            {
                "city": "Bankstown",
                "url": "http://www.bom.gov.au/fwo/IDN60801/IDN60801.94765.json",
                "lat": " -33.92",
                "lon": " 150.99"
            },
            {
                "city": "Barraba",
                "url": "http://www.bom.gov.au/fwo/IDN60801/IDN60801.94761.json",
                "lat": " -30.38",
                "lon": " 150.61"
            },
            {
                "city": "Batemans Bay",
                "url": "http://www.bom.gov.au/fwo/IDN60801/IDN60801.94941.json",
                "lat": " -35.72",
                "lon": " 150.19"
            },
            {
                "city": "Bathurst Airport",
                "url": "http://www.bom.gov.au/fwo/IDN60801/IDN60801.94729.json",
                "lat": " -33.41",
                "lon": " 149.65"
            },
            {
                "city": "Bathurst",
                "url": "http://www.bom.gov.au/fwo/IDN60801/IDN60801.94730.json",
                "lat": " -33.43",
                "lon": " 149.56"
            },
            {
                "city": "Bega",
                "url": "http://www.bom.gov.au/fwo/IDN60801/IDN60801.95931.json",
                "lat": " -36.67",
                "lon": " 149.82"
            },
            {
                "city": "Bellambi",
                "url": "http://www.bom.gov.au/fwo/IDN60801/IDN60801.94749.json",
                "lat": " -34.37",
                "lon": " 150.93"
            },
            {
                "city": "Bombala AWS",
                "url": "http://www.bom.gov.au/fwo/IDN60801/IDN60801.94929.json",
                "lat": " -37.00",
                "lon": " 149.23"
            },
            {
                "city": "Bombala",
                "url": "http://www.bom.gov.au/fwo/IDN60801/IDN60801.94928.json",
                "lat": " -36.91",
                "lon": " 149.24"
            },
            {
                "city": "Bourke",
                "url": "http://www.bom.gov.au/fwo/IDN60801/IDN60801.94703.json",
                "lat": " -30.04",
                "lon": " 145.95"
            },
            {
                "city": "Braidwood",
                "url": "http://www.bom.gov.au/fwo/IDN60801/IDN60801.94927.json",
                "lat": " -35.43",
                "lon": " 149.78"
            },
            {
                "city": "Brewarrina",
                "url": "http://www.bom.gov.au/fwo/IDN60801/IDN60801.95512.json",
                "lat": " -29.96",
                "lon": " 146.87"
            },
            {
                "city": "Broken Hill Airport",
                "url": "http://www.bom.gov.au/fwo/IDN60801/IDN60801.94691.json",
                "lat": " -32.00",
                "lon": " 141.47"
            },
            {
                "city": "Burrinjuck Dam",
                "url": "http://www.bom.gov.au/fwo/IDN60801/IDN60801.94909.json",
                "lat": " -35.00",
                "lon": " 148.60"
            },
            {
                "city": "Cabramurra",
                "url": "http://www.bom.gov.au/fwo/IDN60801/IDN60801.95916.json",
                "lat": " -35.94",
                "lon": " 148.38"
            },
            {
                "city": "Campbelltown",
                "url": "http://www.bom.gov.au/fwo/IDN60801/IDN60801.94757.json",
                "lat": " -34.06",
                "lon": " 150.77"
            },
            {
                "city": "Canterbury",
                "url": "http://www.bom.gov.au/fwo/IDN60801/IDN60801.94766.json",
                "lat": " -33.91",
                "lon": " 151.11"
            },
            {
                "city": "Cape Byron",
                "url": "http://www.bom.gov.au/fwo/IDN60801/IDN60801.94599.json",
                "lat": " -28.64",
                "lon": " 153.64"
            },
            {
                "city": "Casino",
                "url": "http://www.bom.gov.au/fwo/IDN60801/IDN60801.94573.json",
                "lat": " -28.88",
                "lon": " 153.06"
            },
            {
                "city": "Cessnock Airport",
                "url": "http://www.bom.gov.au/fwo/IDN60801/IDN60801.95771.json",
                "lat": " -32.79",
                "lon": " 151.34"
            },
            {
                "city": "Cobar Airport",
                "url": "http://www.bom.gov.au/fwo/IDN60801/IDN60801.94710.json",
                "lat": " -31.54",
                "lon": " 145.80"
            },
            {
                "city": "Cobar",
                "url": "http://www.bom.gov.au/fwo/IDN60801/IDN60801.94711.json",
                "lat": " -31.48",
                "lon": " 145.83"
            },
            {
                "city": "Coffs Harbour Airport",
                "url": "http://www.bom.gov.au/fwo/IDN60801/IDN60801.95729.json",
                "lat": " -30.32",
                "lon": " 153.12"
            },
            {
                "city": "Collarenebri",
                "url": "http://www.bom.gov.au/fwo/IDN60801/IDN60801.95520.json",
                "lat": " -29.54",
                "lon": " 148.58"
            },
            {
                "city": "Condobolin Airport",
                "url": "http://www.bom.gov.au/fwo/IDN60801/IDN60801.95708.json",
                "lat": " -33.07",
                "lon": " 147.21"
            },
            {
                "city": "Coolangatta",
                "url": "http://www.bom.gov.au/fwo/IDN60801/IDN60801.94592.json",
                "lat": " -28.17",
                "lon": " 153.51"
            },
            {
                "city": "Cooma Airport",
                "url": "http://www.bom.gov.au/fwo/IDN60801/IDN60801.94921.json",
                "lat": " -36.29",
                "lon": " 148.97"
            },
            {
                "city": "Cooma",
                "url": "http://www.bom.gov.au/fwo/IDN60801/IDN60801.94923.json",
                "lat": " -36.23",
                "lon": " 149.12"
            },
            {
                "city": "Coonabarabran Airport",
                "url": "http://www.bom.gov.au/fwo/IDN60801/IDN60801.95728.json",
                "lat": " -31.33",
                "lon": " 149.27"
            },
            {
                "city": "Coonamble",
                "url": "http://www.bom.gov.au/fwo/IDN60801/IDN60801.95718.json",
                "lat": " -30.98",
                "lon": " 148.38"
            },
            {
                "city": "Cootamundra",
                "url": "http://www.bom.gov.au/fwo/IDN60801/IDN60801.94714.json",
                "lat": " -34.63",
                "lon": " 148.04"
            },
            {
                "city": "Corowa",
                "url": "http://www.bom.gov.au/fwo/IDN60801/IDN60801.95895.json",
                "lat": " -35.99",
                "lon": " 146.36"
            },
            {
                "city": "Cowra",
                "url": "http://www.bom.gov.au/fwo/IDN60801/IDN60801.95721.json",
                "lat": " -33.84",
                "lon": " 148.65"
            },
            {
                "city": "Deniliquin",
                "url": "http://www.bom.gov.au/fwo/IDN60801/IDN60801.95869.json",
                "lat": " -35.56",
                "lon": " 144.95"
            },
            {
                "city": "Dorrigo",
                "url": "http://www.bom.gov.au/fwo/IDN60801/IDN60801.94789.json",
                "lat": " -30.34",
                "lon": " 152.72"
            },
            {
                "city": "Dubbo",
                "url": "http://www.bom.gov.au/fwo/IDN60801/IDN60801.95719.json",
                "lat": " -32.22",
                "lon": " 148.58"
            },
            {
                "city": "Dunedoo",
                "url": "http://www.bom.gov.au/fwo/IDN60801/IDN60801.95727.json",
                "lat": " -32.02",
                "lon": " 149.40"
            },
            {
                "city": "Evans Head",
                "url": "http://www.bom.gov.au/fwo/IDN60801/IDN60801.94598.json",
                "lat": " -29.18",
                "lon": " 153.40"
            },
            {
                "city": "Forbes",
                "url": "http://www.bom.gov.au/fwo/IDN60801/IDN60801.94715.json",
                "lat": " -33.36",
                "lon": " 147.92"
            },
            {
                "city": "Forster",
                "url": "http://www.bom.gov.au/fwo/IDN60801/IDN60801.95778.json",
                "lat": " -32.18",
                "lon": " 152.51"
            },
            {
                "city": "Fort Denison",
                "url": "http://www.bom.gov.au/fwo/IDN60801/IDN60801.94769.json",
                "lat": " -33.86",
                "lon": " 151.23"
            },
            {
                "city": "Fowlers Gap",
                "url": "http://www.bom.gov.au/fwo/IDN60801/IDN60801.94686.json",
                "lat": " -31.09",
                "lon": " 141.70"
            },
            {
                "city": "Gabo Island",
                "url": "http://www.bom.gov.au/fwo/IDN60801/IDN60801.94933.json",
                "lat": " -37.57",
                "lon": " 149.92"
            },
            {
                "city": "Glen Innes Airport",
                "url": "http://www.bom.gov.au/fwo/IDN60801/IDN60801.94588.json",
                "lat": " -29.68",
                "lon": " 151.69"
            },
            {
                "city": "Gosford",
                "url": "http://www.bom.gov.au/fwo/IDN60801/IDN60801.94782.json",
                "lat": " -33.44",
                "lon": " 151.36"
            },
            {
                "city": "Goulburn Airport",
                "url": "http://www.bom.gov.au/fwo/IDN60801/IDN60801.95716.json",
                "lat": " -34.81",
                "lon": " 149.73"
            },
            {
                "city": "Goulburn",
                "url": "http://www.bom.gov.au/fwo/IDN60801/IDN60801.94716.json",
                "lat": " -34.75",
                "lon": " 149.70"
            },
            {
                "city": "Grafton AgRS",
                "url": "http://www.bom.gov.au/fwo/IDN60801/IDN60801.95571.json",
                "lat": " -29.62",
                "lon": " 152.96"
            },
            {
                "city": "Grafton Airport",
                "url": "http://www.bom.gov.au/fwo/IDN60801/IDN60801.95570.json",
                "lat": " -29.76",
                "lon": " 153.03"
            },
            {
                "city": "Green Cape",
                "url": "http://www.bom.gov.au/fwo/IDN60801/IDN60801.94934.json",
                "lat": " -37.26",
                "lon": " 150.05"
            },
            {
                "city": "Grenfell",
                "url": "http://www.bom.gov.au/fwo/IDN60801/IDN60801.94725.json",
                "lat": " -33.89",
                "lon": " 148.15"
            },
            {
                "city": "Griffith",
                "url": "http://www.bom.gov.au/fwo/IDN60801/IDN60801.95704.json",
                "lat": " -34.25",
                "lon": " 146.07"
            },
            {
                "city": "Gulgong",
                "url": "http://www.bom.gov.au/fwo/IDN60801/IDN60801.94732.json",
                "lat": " -32.36",
                "lon": " 149.53"
            },
            {
                "city": "Gundagai",
                "url": "http://www.bom.gov.au/fwo/IDN60801/IDN60801.94890.json",
                "lat": " -35.06",
                "lon": " 148.10"
            },
            {
                "city": "Gunnedah Airport",
                "url": "http://www.bom.gov.au/fwo/IDN60801/IDN60801.95740.json",
                "lat": " -30.95",
                "lon": " 150.25"
            },
            {
                "city": "Guyra",
                "url": "http://www.bom.gov.au/fwo/IDN60801/IDN60801.94772.json",
                "lat": " -30.21",
                "lon": " 151.68"
            },
            {
                "city": "Hay Airport",
                "url": "http://www.bom.gov.au/fwo/IDN60801/IDN60801.94702.json",
                "lat": " -34.54",
                "lon": " 144.83"
            },
            {
                "city": "High Range Wanganderry",
                "url": "http://www.bom.gov.au/fwo/IDN60801/IDN60801.99742.json",
                "lat": " -34.33",
                "lon": " 150.27"
            },
            {
                "city": "Hillston",
                "url": "http://www.bom.gov.au/fwo/IDN60801/IDN60801.94700.json",
                "lat": " -33.49",
                "lon": " 145.52"
            },
            {
                "city": "Holsworthy",
                "url": "http://www.bom.gov.au/fwo/IDN60801/IDN60801.95761.json",
                "lat": " -33.99",
                "lon": " 150.95"
            },
            {
                "city": "Horsley Park",
                "url": "http://www.bom.gov.au/fwo/IDN60801/IDN60801.94760.json",
                "lat": " -33.85",
                "lon": " 150.86"
            },
            {
                "city": "Hume Reservoir",
                "url": "http://www.bom.gov.au/fwo/IDN60801/IDN60801.94901.json",
                "lat": " -36.10",
                "lon": " 147.03"
            },
            {
                "city": "Inverell RS",
                "url": "http://www.bom.gov.au/fwo/IDN60801/IDN60801.94541.json",
                "lat": " -29.78",
                "lon": " 151.08"
            },
            {
                "city": "Inverell",
                "url": "http://www.bom.gov.au/fwo/IDN60801/IDN60801.95541.json",
                "lat": " -29.78",
                "lon": " 151.11"
            },
            {
                "city": "Ivanhoe Airport",
                "url": "http://www.bom.gov.au/fwo/IDN60801/IDN60801.95697.json",
                "lat": " -32.88",
                "lon": " 144.31"
            },
            {
                "city": "Katoomba",
                "url": "http://www.bom.gov.au/fwo/IDN60801/IDN60801.94744.json",
                "lat": " -33.71",
                "lon": " 150.31"
            },
            {
                "city": "Kempsey Airport",
                "url": "http://www.bom.gov.au/fwo/IDN60801/IDN60801.94785.json",
                "lat": " -31.07",
                "lon": " 152.77"
            },
            {
                "city": "Khancoban",
                "url": "http://www.bom.gov.au/fwo/IDN60801/IDN60801.94919.json",
                "lat": " -36.23",
                "lon": " 148.14"
            },
            {
                "city": "Kiama",
                "url": "http://www.bom.gov.au/fwo/IDN60801/IDN60801.95749.json",
                "lat": " -34.65",
                "lon": " 150.86"
            },
            {
                "city": "Kurnell",
                "url": "http://www.bom.gov.au/fwo/IDN60801/IDN60801.95756.json",
                "lat": " -34.00",
                "lon": " 151.21"
            },
            {
                "city": "Lake Cargelligo",
                "url": "http://www.bom.gov.au/fwo/IDN60801/IDN60801.95707.json",
                "lat": " -33.28",
                "lon": " 146.37"
            },
            {
                "city": "Lake Macquarie - Cooranbong",
                "url": "http://www.bom.gov.au/fwo/IDN60801/IDN60801.95767.json",
                "lat": " -33.09",
                "lon": " 151.46"
            },
            {
                "city": "Lake Victoria",
                "url": "http://www.bom.gov.au/fwo/IDN60801/IDN60801.94692.json",
                "lat": " -34.04",
                "lon": " 141.27"
            },
            {
                "city": "Lightning Ridge",
                "url": "http://www.bom.gov.au/fwo/IDN60801/IDN60801.94498.json",
                "lat": " -29.43",
                "lon": " 147.97"
            },
            {
                "city": "Lismore Airport",
                "url": "http://www.bom.gov.au/fwo/IDN60801/IDN60801.94572.json",
                "lat": " -28.83",
                "lon": " 153.26"
            },
            {
                "city": "Lithgow",
                "url": "http://www.bom.gov.au/fwo/IDN60801/IDN60801.94741.json",
                "lat": " -33.48",
                "lon": " 150.13"
            },
            {
                "city": "Little Bay",
                "url": "http://www.bom.gov.au/fwo/IDN60801/IDN60801.94780.json",
                "lat": " -33.98",
                "lon": " 151.25"
            },
            {
                "city": "Lord Howe Island Windy Point",
                "url": "http://www.bom.gov.au/fwo/IDN60801/IDN60801.95995.json",
                "lat": " -31.54",
                "lon": " 159.07"
            },
            {
                "city": "Lord Howe Island",
                "url": "http://www.bom.gov.au/fwo/IDN60801/IDN60801.94995.json",
                "lat": " -31.54",
                "lon": " 159.08"
            },
            {
                "city": "Lostock",
                "url": "http://www.bom.gov.au/fwo/IDN60801/IDN60801.95772.json",
                "lat": " -32.33",
                "lon": " 151.46"
            },
            {
                "city": "Lucas Heights",
                "url": "http://www.bom.gov.au/fwo/IDN60801/IDN60801.95757.json",
                "lat": " -34.05",
                "lon": " 150.98"
            },
            {
                "city": "Maitland",
                "url": "http://www.bom.gov.au/fwo/IDN60801/IDN60801.95775.json",
                "lat": " -32.74",
                "lon": " 151.57"
            },
            {
                "city": "Mangrove Mountain",
                "url": "http://www.bom.gov.au/fwo/IDN60801/IDN60801.95774.json",
                "lat": " -33.29",
                "lon": " 151.21"
            },
            {
                "city": "Menindee",
                "url": "http://www.bom.gov.au/fwo/IDN60801/IDN60801.94694.json",
                "lat": " -32.39",
                "lon": " 142.42"
            },
            {
                "city": "Merimbula",
                "url": "http://www.bom.gov.au/fwo/IDN60801/IDN60801.95929.json",
                "lat": " -36.91",
                "lon": " 149.90"
            },
            {
                "city": "Merriwa",
                "url": "http://www.bom.gov.au/fwo/IDN60801/IDN60801.95754.json",
                "lat": " -32.19",
                "lon": " 150.17"
            },
            {
                "city": "Mildura",
                "url": "http://www.bom.gov.au/fwo/IDN60801/IDN60801.94693.json",
                "lat": " -34.24",
                "lon": " 142.09"
            },
            {
                "city": "Montague Island",
                "url": "http://www.bom.gov.au/fwo/IDN60801/IDN60801.94939.json",
                "lat": " -36.25",
                "lon": " 150.23"
            },
            {
                "city": "Moree",
                "url": "http://www.bom.gov.au/fwo/IDN60801/IDN60801.95527.json",
                "lat": " -29.49",
                "lon": " 149.85"
            },
            {
                "city": "Moruya Airport",
                "url": "http://www.bom.gov.au/fwo/IDN60801/IDN60801.95937.json",
                "lat": " -35.90",
                "lon": " 150.14"
            },
            {
                "city": "Moruya Heads",
                "url": "http://www.bom.gov.au/fwo/IDN60801/IDN60801.94937.json",
                "lat": " -35.91",
                "lon": " 150.15"
            },
            {
                "city": "Moss Vale",
                "url": "http://www.bom.gov.au/fwo/IDN60801/IDN60801.94746.json",
                "lat": " -34.53",
                "lon": " 150.42"
            },
            {
                "city": "Mount Boyce",
                "url": "http://www.bom.gov.au/fwo/IDN60801/IDN60801.94743.json",
                "lat": " -33.62",
                "lon": " 150.27"
            },
            {
                "city": "Mount Ginini",
                "url": "http://www.bom.gov.au/fwo/IDN60801/IDN60801.95925.json",
                "lat": " -35.53",
                "lon": " 148.77"
            },
            {
                "city": "Mount Seaview",
                "url": "http://www.bom.gov.au/fwo/IDN60801/IDN60801.94783.json",
                "lat": " -31.39",
                "lon": " 152.25"
            },
            {
                "city": "Mudgee",
                "url": "http://www.bom.gov.au/fwo/IDN60801/IDN60801.94727.json",
                "lat": " -32.56",
                "lon": " 149.61"
            },
            {
                "city": "Mungindi",
                "url": "http://www.bom.gov.au/fwo/IDN60801/IDN60801.94520.json",
                "lat": " -28.98",
                "lon": " 148.99"
            },
            {
                "city": "Murrurundi Gap",
                "url": "http://www.bom.gov.au/fwo/IDN60801/IDN60801.95747.json",
                "lat": " -31.74",
                "lon": " 150.79"
            },
            {
                "city": "Murrurundi",
                "url": "http://www.bom.gov.au/fwo/IDN60801/IDN60801.94756.json",
                "lat": " -31.77",
                "lon": " 150.84"
            },
            {
                "city": "Murwillumbah",
                "url": "http://www.bom.gov.au/fwo/IDN60801/IDN60801.94582.json",
                "lat": " -28.34",
                "lon": " 153.38"
            },
            {
                "city": "Narooma",
                "url": "http://www.bom.gov.au/fwo/IDN60801/IDN60801.95935.json",
                "lat": " -36.21",
                "lon": " 150.14"
            },
            {
                "city": "Narrabri",
                "url": "http://www.bom.gov.au/fwo/IDN60801/IDN60801.95734.json",
                "lat": " -30.32",
                "lon": " 149.83"
            },
            {
                "city": "Narrandera Airport",
                "url": "http://www.bom.gov.au/fwo/IDN60801/IDN60801.95706.json",
                "lat": " -34.70",
                "lon": " 146.51"
            },
            {
                "city": "Nelson Bay",
                "url": "http://www.bom.gov.au/fwo/IDN60801/IDN60801.95779.json",
                "lat": " -32.71",
                "lon": " 152.16"
            },
            {
                "city": "Nerriga",
                "url": "http://www.bom.gov.au/fwo/IDN60801/IDN60801.94943.json",
                "lat": " -35.11",
                "lon": " 150.08"
            },
            {
                "city": "Newcastle Nobbys",
                "url": "http://www.bom.gov.au/fwo/IDN60801/IDN60801.94774.json",
                "lat": " -32.92",
                "lon": " 151.80"
            },
            {
                "city": "Newcastle University",
                "url": "http://www.bom.gov.au/fwo/IDN60801/IDN60801.94781.json",
                "lat": " -32.89",
                "lon": " 151.71"
            },
            {
                "city": "Norah Head",
                "url": "http://www.bom.gov.au/fwo/IDN60801/IDN60801.95770.json",
                "lat": " -33.28",
                "lon": " 151.58"
            },
            {
                "city": "Norfolk Island",
                "url": "http://www.bom.gov.au/fwo/IDN60801/IDN60801.94996.json",
                "lat": " -29.04",
                "lon": " 167.94"
            },
            {
                "city": "North Head",
                "url": "http://www.bom.gov.au/fwo/IDN60801/IDN60801.95768.json",
                "lat": " -33.82",
                "lon": " 151.30"
            },
            {
                "city": "Nowra",
                "url": "http://www.bom.gov.au/fwo/IDN60801/IDN60801.94750.json",
                "lat": " -34.95",
                "lon": " 150.54"
            },
            {
                "city": "Nullo Mountain",
                "url": "http://www.bom.gov.au/fwo/IDN60801/IDN60801.94754.json",
                "lat": " -32.72",
                "lon": " 150.23"
            },
            {
                "city": "Nyngan",
                "url": "http://www.bom.gov.au/fwo/IDN60801/IDN60801.94708.json",
                "lat": " -31.55",
                "lon": " 147.20"
            },
            {
                "city": "Oberon",
                "url": "http://www.bom.gov.au/fwo/IDN60801/IDN60801.95735.json",
                "lat": " -33.67",
                "lon": " 149.83"
            },
            {
                "city": "Orange AgIn",
                "url": "http://www.bom.gov.au/fwo/IDN60801/IDN60801.95725.json",
                "lat": " -33.32",
                "lon": " 149.08"
            },
            {
                "city": "Orange Airport",
                "url": "http://www.bom.gov.au/fwo/IDN60801/IDN60801.95726.json",
                "lat": " -33.38",
                "lon": " 149.13"
            },
            {
                "city": "Parkes Airport",
                "url": "http://www.bom.gov.au/fwo/IDN60801/IDN60801.95717.json",
                "lat": " -33.13",
                "lon": " 148.24"
            },
            {
                "city": "Parramatta",
                "url": "http://www.bom.gov.au/fwo/IDN60801/IDN60801.94764.json",
                "lat": " -33.79",
                "lon": " 151.02"
            },
            {
                "city": "Peak Hill",
                "url": "http://www.bom.gov.au/fwo/IDN60801/IDN60801.94721.json",
                "lat": " -32.72",
                "lon": " 148.19"
            },
            {
                "city": "Penrith",
                "url": "http://www.bom.gov.au/fwo/IDN60801/IDN60801.94763.json",
                "lat": " -33.72",
                "lon": " 150.68"
            },
            {
                "city": "Perisher Valley",
                "url": "http://www.bom.gov.au/fwo/IDN60801/IDN60801.94915.json",
                "lat": " -36.41",
                "lon": " 148.41"
            },
            {
                "city": "Pindari Dam",
                "url": "http://www.bom.gov.au/fwo/IDN60801/IDN60801.94544.json",
                "lat": " -29.39",
                "lon": " 151.24"
            },
            {
                "city": "Point Perpendicular",
                "url": "http://www.bom.gov.au/fwo/IDN60801/IDN60801.95940.json",
                "lat": " -35.09",
                "lon": " 150.80"
            },
            {
                "city": "Pooncarie",
                "url": "http://www.bom.gov.au/fwo/IDN60801/IDN60801.95692.json",
                "lat": " -33.39",
                "lon": " 142.57"
            },
            {
                "city": "Port Kembla Harbour",
                "url": "http://www.bom.gov.au/fwo/IDN60801/IDN60801.95745.json",
                "lat": " -34.47",
                "lon": " 150.91"
            },
            {
                "city": "Port Macquarie Airport",
                "url": "http://www.bom.gov.au/fwo/IDN60801/IDN60801.94786.json",
                "lat": " -31.43",
                "lon": " 152.87"
            },
            {
                "city": "Prospect",
                "url": "http://www.bom.gov.au/fwo/IDN60801/IDN60801.94736.json",
                "lat": " -33.82",
                "lon": " 150.91"
            },
            {
                "city": "Quirindi",
                "url": "http://www.bom.gov.au/fwo/IDN60801/IDN60801.95746.json",
                "lat": " -31.51",
                "lon": " 150.68"
            },
            {
                "city": "Richmond",
                "url": "http://www.bom.gov.au/fwo/IDN60801/IDN60801.95753.json",
                "lat": " -33.60",
                "lon": " 150.78"
            },
            {
                "city": "Scone Airport",
                "url": "http://www.bom.gov.au/fwo/IDN60801/IDN60801.95758.json",
                "lat": " -32.03",
                "lon": " 150.83"
            },
            {
                "city": "Scone",
                "url": "http://www.bom.gov.au/fwo/IDN60801/IDN60801.94738.json",
                "lat": " -32.06",
                "lon": " 150.93"
            },
            {
                "city": "Singleton",
                "url": "http://www.bom.gov.au/fwo/IDN60801/IDN60801.94733.json",
                "lat": " -32.59",
                "lon": " 151.17"
            },
            {
                "city": "Smoky Cape",
                "url": "http://www.bom.gov.au/fwo/IDN60801/IDN60801.94790.json",
                "lat": " -30.92",
                "lon": " 153.09"
            },
            {
                "city": "Springwood",
                "url": "http://www.bom.gov.au/fwo/IDN60801/IDN60801.95744.json",
                "lat": " -33.71",
                "lon": " 150.58"
            },
            {
                "city": "Swan Hill",
                "url": "http://www.bom.gov.au/fwo/IDN60801/IDN60801.94843.json",
                "lat": " -35.38",
                "lon": " 143.54"
            },
            {
                "city": "Sydney - Observatory Hill",
                "url": "http://www.bom.gov.au/fwo/IDN60801/IDN60801.94768.json",
                "lat": " -33.86",
                "lon": " 151.21"
            },
            {
                "city": "Sydney Airport",
                "url": "http://www.bom.gov.au/fwo/IDN60801/IDN60801.94767.json",
                "lat": " -33.95",
                "lon": " 151.17"
            },
            {
                "city": "Sydney Harbour",
                "url": "http://www.bom.gov.au/fwo/IDN60801/IDN60801.95766.json",
                "lat": " -33.84",
                "lon": " 151.26"
            },
            {
                "city": "Sydney Olympic Park",
                "url": "http://www.bom.gov.au/fwo/IDN60801/IDN60801.95765.json",
                "lat": " -33.83",
                "lon": " 151.07"
            },
            {
                "city": "Tamworth Airport",
                "url": "http://www.bom.gov.au/fwo/IDN60801/IDN60801.95762.json",
                "lat": " -31.07",
                "lon": " 150.84"
            },
            {
                "city": "Taralga",
                "url": "http://www.bom.gov.au/fwo/IDN60801/IDN60801.94735.json",
                "lat": " -34.40",
                "lon": " 149.82"
            },
            {
                "city": "Taree Airport",
                "url": "http://www.bom.gov.au/fwo/IDN60801/IDN60801.95784.json",
                "lat": " -31.89",
                "lon": " 152.51"
            },
            {
                "city": "Temora",
                "url": "http://www.bom.gov.au/fwo/IDN60801/IDN60801.95722.json",
                "lat": " -34.43",
                "lon": " 147.51"
            },
            {
                "city": "Tenterfield",
                "url": "http://www.bom.gov.au/fwo/IDN60801/IDN60801.94556.json",
                "lat": " -29.05",
                "lon": " 152.02"
            },
            {
                "city": "Terrey Hills",
                "url": "http://www.bom.gov.au/fwo/IDN60801/IDN60801.94759.json",
                "lat": " -33.69",
                "lon": " 151.23"
            },
            {
                "city": "Thredbo Top Station",
                "url": "http://www.bom.gov.au/fwo/IDN60801/IDN60801.95909.json",
                "lat": " -36.49",
                "lon": " 148.29"
            },
            {
                "city": "Thredbo Village",
                "url": "http://www.bom.gov.au/fwo/IDN60801/IDN60801.95908.json",
                "lat": " -36.50",
                "lon": " 148.30"
            },
            {
                "city": "Tibooburra Airport",
                "url": "http://www.bom.gov.au/fwo/IDN60801/IDN60801.95485.json",
                "lat": " -29.44",
                "lon": " 142.06"
            },
            {
                "city": "Tocal",
                "url": "http://www.bom.gov.au/fwo/IDN60801/IDN60801.94775.json",
                "lat": " -32.63",
                "lon": " 151.59"
            },
            {
                "city": "Tocumwal",
                "url": "http://www.bom.gov.au/fwo/IDN60801/IDN60801.94877.json",
                "lat": " -35.82",
                "lon": " 145.60"
            },
            {
                "city": "Trangie",
                "url": "http://www.bom.gov.au/fwo/IDN60801/IDN60801.95710.json",
                "lat": " -31.99",
                "lon": " 147.95"
            },
            {
                "city": "Tuggeranong",
                "url": "http://www.bom.gov.au/fwo/IDN60801/IDN60801.94925.json",
                "lat": " -35.42",
                "lon": " 149.09"
            },
            {
                "city": "Tumbarumba",
                "url": "http://www.bom.gov.au/fwo/IDN60801/IDN60801.94918.json",
                "lat": " -35.78",
                "lon": " 148.01"
            },
            {
                "city": "Ulladulla",
                "url": "http://www.bom.gov.au/fwo/IDN60801/IDN60801.94938.json",
                "lat": " -35.36",
                "lon": " 150.48"
            },
            {
                "city": "Wagga Wagga",
                "url": "http://www.bom.gov.au/fwo/IDN60801/IDN60801.94910.json",
                "lat": " -35.16",
                "lon": " 147.46"
            },
            {
                "city": "Walgett",
                "url": "http://www.bom.gov.au/fwo/IDN60801/IDN60801.95715.json",
                "lat": " -30.04",
                "lon": " 148.12"
            },
            {
                "city": "Wanaaring",
                "url": "http://www.bom.gov.au/fwo/IDN60801/IDN60801.94497.json",
                "lat": " -29.70",
                "lon": " 144.15"
            },
            {
                "city": "Wattamolla",
                "url": "http://www.bom.gov.au/fwo/IDN60801/IDN60801.95752.json",
                "lat": " -34.14",
                "lon": " 151.12"
            },
            {
                "city": "Wellington",
                "url": "http://www.bom.gov.au/fwo/IDN60801/IDN60801.94723.json",
                "lat": " -32.56",
                "lon": " 148.95"
            },
            {
                "city": "West Wyalong",
                "url": "http://www.bom.gov.au/fwo/IDN60801/IDN60801.95709.json",
                "lat": " -33.94",
                "lon": " 147.20"
            },
            {
                "city": "White Cliffs AWS",
                "url": "http://www.bom.gov.au/fwo/IDN60801/IDN60801.95699.json",
                "lat": " -30.85",
                "lon": " 143.07"
            },
            {
                "city": "Wilcannia Airport",
                "url": "http://www.bom.gov.au/fwo/IDN60801/IDN60801.95695.json",
                "lat": " -31.52",
                "lon": " 143.38"
            },
            {
                "city": "Williamtown",
                "url": "http://www.bom.gov.au/fwo/IDN60801/IDN60801.94776.json",
                "lat": " -32.79",
                "lon": " 151.84"
            },
            {
                "city": "Woolbrook",
                "url": "http://www.bom.gov.au/fwo/IDN60801/IDN60801.94792.json",
                "lat": " -30.97",
                "lon": " 151.35"
            },
            {
                "city": "Yamba",
                "url": "http://www.bom.gov.au/fwo/IDN60801/IDN60801.94589.json",
                "lat": " -29.43",
                "lon": " 153.36"
            },
            {
                "city": "Yanco",
                "url": "http://www.bom.gov.au/fwo/IDN60801/IDN60801.95705.json",
                "lat": " -34.62",
                "lon": " 146.43"
            },
            {
                "city": "Yarrawonga",
                "url": "http://www.bom.gov.au/fwo/IDN60801/IDN60801.94862.json",
                "lat": " -36.03",
                "lon": " 146.03"
            },
            {
                "city": "Yass",
                "url": "http://www.bom.gov.au/fwo/IDN60801/IDN60801.95723.json",
                "lat": " -34.82",
                "lon": " 148.91"
            },
            {
                "city": "Young",
                "url": "http://www.bom.gov.au/fwo/IDN60801/IDN60801.94712.json",
                "lat": " -34.25",
                "lon": " 148.25"
            }
        ]
    },
    {
        "state": "Northern Territory",
        "stations": [
            {
                "city": "Alice Springs Airport",
                "url": "http://www.bom.gov.au/fwo/IDD60801/IDD60801.94326.json",
                "lat": " -23.80",
                "lon": " 133.89"
            },
            {
                "city": "Argyle",
                "url": "http://www.bom.gov.au/fwo/IDD60801/IDD60801.94217.json",
                "lat": " -16.64",
                "lon": " 128.45"
            },
            {
                "city": "Arltunga",
                "url": "http://www.bom.gov.au/fwo/IDD60801/IDD60801.95323.json",
                "lat": " -23.46",
                "lon": " 134.68"
            },
            {
                "city": "Batchelor",
                "url": "http://www.bom.gov.au/fwo/IDD60801/IDD60801.94125.json",
                "lat": " -13.05",
                "lon": " 131.03"
            },
            {
                "city": "Black Point",
                "url": "http://www.bom.gov.au/fwo/IDD60801/IDD60801.94134.json",
                "lat": " -11.15",
                "lon": " 132.14"
            },
            {
                "city": "Borroloola",
                "url": "http://www.bom.gov.au/fwo/IDD60801/IDD60801.94152.json",
                "lat": " -16.08",
                "lon": " 136.30"
            },
            {
                "city": "Bradshaw",
                "url": "http://www.bom.gov.au/fwo/IDD60801/IDD60801.94130.json",
                "lat": " -14.94",
                "lon": " 130.81"
            },
            {
                "city": "Brunette Downs",
                "url": "http://www.bom.gov.au/fwo/IDD60801/IDD60801.94242.json",
                "lat": " -18.64",
                "lon": " 135.94"
            },
            {
                "city": "Bulman",
                "url": "http://www.bom.gov.au/fwo/IDD60801/IDD60801.94143.json",
                "lat": " -13.67",
                "lon": " 134.34"
            },
            {
                "city": "Camooweal",
                "url": "http://www.bom.gov.au/fwo/IDD60801/IDD60801.94255.json",
                "lat": " -19.92",
                "lon": " 138.12"
            },
            {
                "city": "Cape Wessel",
                "url": "http://www.bom.gov.au/fwo/IDD60801/IDD60801.94147.json",
                "lat": " -11.00",
                "lon": " 136.76"
            },
            {
                "city": "Central Arnhem Plateau",
                "url": "http://www.bom.gov.au/fwo/IDD60801/IDD60801.94141.json",
                "lat": " -13.33",
                "lon": " 133.09"
            },
            {
                "city": "Centre Island",
                "url": "http://www.bom.gov.au/fwo/IDD60801/IDD60801.94248.json",
                "lat": " -15.74",
                "lon": " 136.82"
            },
            {
                "city": "Charles Point",
                "url": "http://www.bom.gov.au/fwo/IDD60801/IDD60801.99510.json",
                "lat": " -12.39",
                "lon": " 130.63"
            },
            {
                "city": "Croker Island Airport",
                "url": "http://www.bom.gov.au/fwo/IDD60801/IDD60801.94108.json",
                "lat": " -11.16",
                "lon": " 132.48"
            },
            {
                "city": "Curtin Springs",
                "url": "http://www.bom.gov.au/fwo/IDD60801/IDD60801.94463.json",
                "lat": " -25.31",
                "lon": " 131.76"
            },
            {
                "city": "Daly Waters",
                "url": "http://www.bom.gov.au/fwo/IDD60801/IDD60801.94234.json",
                "lat": " -16.26",
                "lon": " 133.38"
            },
            {
                "city": "Darwin Airport",
                "url": "http://www.bom.gov.au/fwo/IDD60801/IDD60801.94120.json",
                "lat": " -12.42",
                "lon": " 130.89"
            },
            {
                "city": "Darwin Harbour",
                "url": "http://www.bom.gov.au/fwo/IDD60801/IDD60801.95122.json",
                "lat": " -12.47",
                "lon": " 130.85"
            },
            {
                "city": "Delamere",
                "url": "http://www.bom.gov.au/fwo/IDD60801/IDD60801.94225.json",
                "lat": " -15.74",
                "lon": " 131.92"
            },
            {
                "city": "Douglas River",
                "url": "http://www.bom.gov.au/fwo/IDD60801/IDD60801.94128.json",
                "lat": " -13.83",
                "lon": " 131.19"
            },
            {
                "city": "Dum In Mirrie",
                "url": "http://www.bom.gov.au/fwo/IDD60801/IDD60801.94116.json",
                "lat": " -12.63",
                "lon": " 130.37"
            },
            {
                "city": "Elliott",
                "url": "http://www.bom.gov.au/fwo/IDD60801/IDD60801.94236.json",
                "lat": " -17.56",
                "lon": " 133.54"
            },
            {
                "city": "ErnabellaPukatja",
                "url": "http://www.bom.gov.au/fwo/IDD60801/IDD60801.94474.json",
                "lat": " -26.26",
                "lon": " 132.18"
            },
            {
                "city": "Giles",
                "url": "http://www.bom.gov.au/fwo/IDD60801/IDD60801.94461.json",
                "lat": " -25.03",
                "lon": " 128.30"
            },
            {
                "city": "Gove Airport",
                "url": "http://www.bom.gov.au/fwo/IDD60801/IDD60801.94150.json",
                "lat": " -12.27",
                "lon": " 136.82"
            },
            {
                "city": "Groote Eylandt Airport",
                "url": "http://www.bom.gov.au/fwo/IDD60801/IDD60801.94153.json",
                "lat": " -13.97",
                "lon": " 136.46"
            },
            {
                "city": "Halls Creek",
                "url": "http://www.bom.gov.au/fwo/IDD60801/IDD60801.94212.json",
                "lat": " -18.23",
                "lon": " 127.66"
            },
            {
                "city": "Jabiru",
                "url": "http://www.bom.gov.au/fwo/IDD60801/IDD60801.94137.json",
                "lat": " -12.66",
                "lon": " 132.89"
            },
            {
                "city": "Jervois",
                "url": "http://www.bom.gov.au/fwo/IDD60801/IDD60801.94327.json",
                "lat": " -22.95",
                "lon": " 136.14"
            },
            {
                "city": "Kalumburu",
                "url": "http://www.bom.gov.au/fwo/IDD60801/IDD60801.94100.json",
                "lat": " -14.30",
                "lon": " 126.65"
            },
            {
                "city": "Katherine",
                "url": "http://www.bom.gov.au/fwo/IDD60801/IDD60801.94132.json",
                "lat": " -14.47",
                "lon": " 132.26"
            },
            {
                "city": "Kulgera",
                "url": "http://www.bom.gov.au/fwo/IDD60801/IDD60801.94466.json",
                "lat": " -25.84",
                "lon": " 133.30"
            },
            {
                "city": "Kununurra Airport",
                "url": "http://www.bom.gov.au/fwo/IDD60801/IDD60801.94216.json",
                "lat": " -15.78",
                "lon": " 128.71"
            },
            {
                "city": "Lajamanu",
                "url": "http://www.bom.gov.au/fwo/IDD60801/IDD60801.94231.json",
                "lat": " -18.33",
                "lon": " 130.64"
            },
            {
                "city": "McArthur River Mine",
                "url": "http://www.bom.gov.au/fwo/IDD60801/IDD60801.94239.json",
                "lat": " -16.44",
                "lon": " 136.08"
            },
            {
                "city": "McCluer Island",
                "url": "http://www.bom.gov.au/fwo/IDD60801/IDD60801.94135.json",
                "lat": " -11.05",
                "lon": " 132.98"
            },
            {
                "city": "Middle Point",
                "url": "http://www.bom.gov.au/fwo/IDD60801/IDD60801.95121.json",
                "lat": " -12.61",
                "lon": " 131.30"
            },
            {
                "city": "Milingimbi",
                "url": "http://www.bom.gov.au/fwo/IDD60801/IDD60801.94140.json",
                "lat": " -12.09",
                "lon": " 134.89"
            },
            {
                "city": "Murganella Airstrip",
                "url": "http://www.bom.gov.au/fwo/IDD60801/IDD60801.94109.json",
                "lat": " -11.55",
                "lon": " 132.93"
            },
            {
                "city": "Ngayawili Elcho Island",
                "url": "http://www.bom.gov.au/fwo/IDD60801/IDD60801.95146.json",
                "lat": " -12.00",
                "lon": " 135.57"
            },
            {
                "city": "Ngukurr AWS",
                "url": "http://www.bom.gov.au/fwo/IDD60801/IDD60801.94106.json",
                "lat": " -14.72",
                "lon": " 134.75"
            },
            {
                "city": "Noonamah",
                "url": "http://www.bom.gov.au/fwo/IDD60801/IDD60801.94105.json",
                "lat": " -12.61",
                "lon": " 131.05"
            },
            {
                "city": "Oenpelli Airport",
                "url": "http://www.bom.gov.au/fwo/IDD60801/IDD60801.94110.json",
                "lat": " -12.33",
                "lon": " 133.01"
            },
            {
                "city": "Pirlangimpi",
                "url": "http://www.bom.gov.au/fwo/IDD60801/IDD60801.94119.json",
                "lat": " -11.40",
                "lon": " 130.42"
            },
            {
                "city": "Point Fawcett",
                "url": "http://www.bom.gov.au/fwo/IDD60801/IDD60801.94122.json",
                "lat": " -11.76",
                "lon": " 130.03"
            },
            {
                "city": "Point Stuart",
                "url": "http://www.bom.gov.au/fwo/IDD60801/IDD60801.94127.json",
                "lat": " -12.24",
                "lon": " 131.88"
            },
            {
                "city": "Rabbit Flat",
                "url": "http://www.bom.gov.au/fwo/IDD60801/IDD60801.95322.json",
                "lat": " -20.18",
                "lon": " 130.01"
            },
            {
                "city": "Tennant Creek",
                "url": "http://www.bom.gov.au/fwo/IDD60801/IDD60801.94238.json",
                "lat": " -19.64",
                "lon": " 134.18"
            },
            {
                "city": "Territory Grape Farm",
                "url": "http://www.bom.gov.au/fwo/IDD60801/IDD60801.94328.json",
                "lat": " -22.45",
                "lon": " 133.64"
            },
            {
                "city": "Tindal",
                "url": "http://www.bom.gov.au/fwo/IDD60801/IDD60801.94131.json",
                "lat": " -14.52",
                "lon": " 132.38"
            },
            {
                "city": "Troughton Island",
                "url": "http://www.bom.gov.au/fwo/IDD60801/IDD60801.94102.json",
                "lat": " -13.75",
                "lon": " 126.15"
            },
            {
                "city": "Truscott",
                "url": "http://www.bom.gov.au/fwo/IDD60801/IDD60801.95101.json",
                "lat": " -14.09",
                "lon": " 126.39"
            },
            {
                "city": "Victoria River Downs",
                "url": "http://www.bom.gov.au/fwo/IDD60801/IDD60801.94232.json",
                "lat": " -16.40",
                "lon": " 131.01"
            },
            {
                "city": "Wadeye Port Keats",
                "url": "http://www.bom.gov.au/fwo/IDD60801/IDD60801.95111.json",
                "lat": " -14.25",
                "lon": " 129.53"
            },
            {
                "city": "Warburton",
                "url": "http://www.bom.gov.au/fwo/IDD60801/IDD60801.94457.json",
                "lat": " -26.13",
                "lon": " 126.58"
            },
            {
                "city": "Warruwi",
                "url": "http://www.bom.gov.au/fwo/IDD60801/IDD60801.94139.json",
                "lat": " -11.65",
                "lon": " 133.38"
            },
            {
                "city": "Watarrka",
                "url": "http://www.bom.gov.au/fwo/IDD60801/IDD60801.94323.json",
                "lat": " -24.29",
                "lon": " 131.55"
            },
            {
                "city": "Wave Hill Kalkarindji",
                "url": "http://www.bom.gov.au/fwo/IDD60801/IDD60801.94229.json",
                "lat": " -17.39",
                "lon": " 131.12"
            },
            {
                "city": "Wulungurru Kintore",
                "url": "http://www.bom.gov.au/fwo/IDD60801/IDD60801.94321.json",
                "lat": " -23.27",
                "lon": " 129.38"
            },
            {
                "city": "Wyndham Airport",
                "url": "http://www.bom.gov.au/fwo/IDD60801/IDD60801.95214.json",
                "lat": " -15.51",
                "lon": " 128.15"
            },
            {
                "city": "Yulara",
                "url": "http://www.bom.gov.au/fwo/IDD60801/IDD60801.94462.json",
                "lat": " -25.19",
                "lon": " 130.97"
            }
        ]
    },
    {
        "state": "Queensland",
        "stations": [
            {
                "city": "Alva Beach",
                "url": "http://www.bom.gov.au/fwo/IDQ60801/IDQ60801.95296.json",
                "lat": " -19.46",
                "lon": " 147.48"
            },
            {
                "city": "Amberley",
                "url": "http://www.bom.gov.au/fwo/IDQ60801/IDQ60801.94568.json",
                "lat": " -27.63",
                "lon": " 152.71"
            },
            {
                "city": "Applethorpe",
                "url": "http://www.bom.gov.au/fwo/IDQ60801/IDQ60801.94553.json",
                "lat": " -28.62",
                "lon": " 151.95"
            },
            {
                "city": "Archerfield",
                "url": "http://www.bom.gov.au/fwo/IDQ60801/IDQ60801.94575.json",
                "lat": " -27.57",
                "lon": " 153.01"
            },
            {
                "city": "Arlington Reef",
                "url": "http://www.bom.gov.au/fwo/IDQ60801/IDQ60801.94284.json",
                "lat": " -16.72",
                "lon": " 146.11"
            },
            {
                "city": "Ayr",
                "url": "http://www.bom.gov.au/fwo/IDQ60801/IDQ60801.95295.json",
                "lat": " -19.62",
                "lon": " 147.38"
            },
            {
                "city": "Ballera",
                "url": "http://www.bom.gov.au/fwo/IDQ60801/IDQ60801.95487.json",
                "lat": " -27.40",
                "lon": " 141.81"
            },
            {
                "city": "Banana Bank",
                "url": "http://www.bom.gov.au/fwo/IDQ60801/IDQ60801.94591.json",
                "lat": " -27.53",
                "lon": " 153.33"
            },
            {
                "city": "Barcaldine",
                "url": "http://www.bom.gov.au/fwo/IDQ60801/IDQ60801.94350.json",
                "lat": " -23.55",
                "lon": " 145.29"
            },
            {
                "city": "Beaudesert AWS",
                "url": "http://www.bom.gov.au/fwo/IDQ60801/IDQ60801.95575.json",
                "lat": " -27.97",
                "lon": " 152.99"
            },
            {
                "city": "Bedourie",
                "url": "http://www.bom.gov.au/fwo/IDQ60801/IDQ60801.94334.json",
                "lat": " -24.36",
                "lon": " 139.47"
            },
            {
                "city": "Beerburrum",
                "url": "http://www.bom.gov.au/fwo/IDQ60801/IDQ60801.95566.json",
                "lat": " -26.96",
                "lon": " 152.96"
            },
            {
                "city": "Biloela",
                "url": "http://www.bom.gov.au/fwo/IDQ60801/IDQ60801.94376.json",
                "lat": " -24.49",
                "lon": " 150.57"
            },
            {
                "city": "Birdsville",
                "url": "http://www.bom.gov.au/fwo/IDQ60801/IDQ60801.95482.json",
                "lat": " -25.90",
                "lon": " 139.35"
            },
            {
                "city": "Blackall",
                "url": "http://www.bom.gov.au/fwo/IDQ60801/IDQ60801.95351.json",
                "lat": " -24.43",
                "lon": " 145.43"
            },
            {
                "city": "Blackwater Airport",
                "url": "http://www.bom.gov.au/fwo/IDQ60801/IDQ60801.94398.json",
                "lat": " -23.60",
                "lon": " 148.81"
            },
            {
                "city": "Bollon",
                "url": "http://www.bom.gov.au/fwo/IDQ60801/IDQ60801.94513.json",
                "lat": " -28.03",
                "lon": " 147.48"
            },
            {
                "city": "Bougainville Reef",
                "url": "http://www.bom.gov.au/fwo/IDQ60801/IDQ60801.95288.json",
                "lat": " -15.49",
                "lon": " 147.12"
            },
            {
                "city": "Boulia",
                "url": "http://www.bom.gov.au/fwo/IDQ60801/IDQ60801.94333.json",
                "lat": " -22.91",
                "lon": " 139.90"
            },
            {
                "city": "Bowen Airport AWS",
                "url": "http://www.bom.gov.au/fwo/IDQ60801/IDQ60801.94383.json",
                "lat": " -20.02",
                "lon": " 148.21"
            },
            {
                "city": "Brisbane Airport",
                "url": "http://www.bom.gov.au/fwo/IDQ60801/IDQ60801.94578.json",
                "lat": " -27.39",
                "lon": " 153.13"
            },
            {
                "city": "Brisbane",
                "url": "http://www.bom.gov.au/fwo/IDQ60801/IDQ60801.94576.json",
                "lat": " -27.48",
                "lon": " 153.04"
            },
            {
                "city": "Bundaberg",
                "url": "http://www.bom.gov.au/fwo/IDQ60801/IDQ60801.94387.json",
                "lat": " -24.91",
                "lon": " 152.32"
            },
            {
                "city": "Burketown Airport",
                "url": "http://www.bom.gov.au/fwo/IDQ60801/IDQ60801.94260.json",
                "lat": " -17.75",
                "lon": " 139.54"
            },
            {
                "city": "Cairns Racecourse",
                "url": "http://www.bom.gov.au/fwo/IDQ60801/IDQ60801.94288.json",
                "lat": " -16.95",
                "lon": " 145.75"
            },
            {
                "city": "Cairns",
                "url": "http://www.bom.gov.au/fwo/IDQ60801/IDQ60801.94287.json",
                "lat": " -16.87",
                "lon": " 145.75"
            },
            {
                "city": "Camooweal",
                "url": "http://www.bom.gov.au/fwo/IDQ60801/IDQ60801.94255.json",
                "lat": " -19.92",
                "lon": " 138.12"
            },
            {
                "city": "Cape Ferguson",
                "url": "http://www.bom.gov.au/fwo/IDQ60801/IDQ60801.94297.json",
                "lat": " -19.28",
                "lon": " 147.06"
            },
            {
                "city": "Cape Flattery",
                "url": "http://www.bom.gov.au/fwo/IDQ60801/IDQ60801.94188.json",
                "lat": " -14.97",
                "lon": " 145.31"
            },
            {
                "city": "Cape Moreton",
                "url": "http://www.bom.gov.au/fwo/IDQ60801/IDQ60801.94594.json",
                "lat": " -27.03",
                "lon": " 153.47"
            },
            {
                "city": "Cardwell",
                "url": "http://www.bom.gov.au/fwo/IDQ60801/IDQ60801.94292.json",
                "lat": " -18.25",
                "lon": " 146.02"
            },
            {
                "city": "Carters Bore",
                "url": "http://www.bom.gov.au/fwo/IDQ60801/IDQ60801.94347.json",
                "lat": " -20.94",
                "lon": " 139.30"
            },
            {
                "city": "Cato Island",
                "url": "http://www.bom.gov.au/fwo/IDQ60801/IDQ60801.94394.json",
                "lat": " -23.25",
                "lon": " 155.54"
            },
            {
                "city": "Century Mine",
                "url": "http://www.bom.gov.au/fwo/IDQ60801/IDQ60801.94261.json",
                "lat": " -18.76",
                "lon": " 138.71"
            },
            {
                "city": "Charleville",
                "url": "http://www.bom.gov.au/fwo/IDQ60801/IDQ60801.94510.json",
                "lat": " -26.41",
                "lon": " 146.26"
            },
            {
                "city": "Charters Towers",
                "url": "http://www.bom.gov.au/fwo/IDQ60801/IDQ60801.94356.json",
                "lat": " -20.05",
                "lon": " 146.27"
            },
            {
                "city": "Cloncurry",
                "url": "http://www.bom.gov.au/fwo/IDQ60801/IDQ60801.94335.json",
                "lat": " -20.67",
                "lon": " 140.50"
            },
            {
                "city": "Coconut Island",
                "url": "http://www.bom.gov.au/fwo/IDQ60801/IDQ60801.94182.json",
                "lat": " -10.05",
                "lon": " 143.07"
            },
            {
                "city": "Coen Airport",
                "url": "http://www.bom.gov.au/fwo/IDQ60801/IDQ60801.94183.json",
                "lat": " -13.76",
                "lon": " 143.12"
            },
            {
                "city": "Collinsville",
                "url": "http://www.bom.gov.au/fwo/IDQ60801/IDQ60801.94360.json",
                "lat": " -20.55",
                "lon": " 147.85"
            },
            {
                "city": "Cooktown",
                "url": "http://www.bom.gov.au/fwo/IDQ60801/IDQ60801.95283.json",
                "lat": " -15.45",
                "lon": " 145.19"
            },
            {
                "city": "Coolangatta",
                "url": "http://www.bom.gov.au/fwo/IDQ60801/IDQ60801.94592.json",
                "lat": " -28.17",
                "lon": " 153.51"
            },
            {
                "city": "Creal Reef",
                "url": "http://www.bom.gov.au/fwo/IDQ60801/IDQ60801.94371.json",
                "lat": " -20.53",
                "lon": " 150.38"
            },
            {
                "city": "Cunnamulla",
                "url": "http://www.bom.gov.au/fwo/IDQ60801/IDQ60801.94500.json",
                "lat": " -28.07",
                "lon": " 145.68"
            },
            {
                "city": "Dalby",
                "url": "http://www.bom.gov.au/fwo/IDQ60801/IDQ60801.94542.json",
                "lat": " -27.16",
                "lon": " 151.26"
            },
            {
                "city": "Double Island Point",
                "url": "http://www.bom.gov.au/fwo/IDQ60801/IDQ60801.94584.json",
                "lat": " -25.93",
                "lon": " 153.19"
            },
            {
                "city": "Emerald",
                "url": "http://www.bom.gov.au/fwo/IDQ60801/IDQ60801.94363.json",
                "lat": " -23.57",
                "lon": " 148.18"
            },
            {
                "city": "Flinders Reef",
                "url": "http://www.bom.gov.au/fwo/IDQ60801/IDQ60801.94290.json",
                "lat": " -17.72",
                "lon": " 148.45"
            },
            {
                "city": "Frederick Reef",
                "url": "http://www.bom.gov.au/fwo/IDQ60801/IDQ60801.94393.json",
                "lat": " -20.94",
                "lon": " 154.40"
            },
            {
                "city": "Gannett Cay",
                "url": "http://www.bom.gov.au/fwo/IDQ60801/IDQ60801.94379.json",
                "lat": " -21.98",
                "lon": " 152.47"
            },
            {
                "city": "Gatton",
                "url": "http://www.bom.gov.au/fwo/IDQ60801/IDQ60801.94562.json",
                "lat": " -27.54",
                "lon": " 152.34"
            },
            {
                "city": "Gayndah",
                "url": "http://www.bom.gov.au/fwo/IDQ60801/IDQ60801.95543.json",
                "lat": " -25.62",
                "lon": " 151.62"
            },
            {
                "city": "Georgetown Airport",
                "url": "http://www.bom.gov.au/fwo/IDQ60801/IDQ60801.94274.json",
                "lat": " -18.30",
                "lon": " 143.53"
            },
            {
                "city": "Gladstone Airport",
                "url": "http://www.bom.gov.au/fwo/IDQ60801/IDQ60801.94381.json",
                "lat": " -23.87",
                "lon": " 151.22"
            },
            {
                "city": "Gladstone",
                "url": "http://www.bom.gov.au/fwo/IDQ60801/IDQ60801.94380.json",
                "lat": " -23.86",
                "lon": " 151.26"
            },
            {
                "city": "Gold Coast Seaway",
                "url": "http://www.bom.gov.au/fwo/IDQ60801/IDQ60801.94580.json",
                "lat": " -27.94",
                "lon": " 153.43"
            },
            {
                "city": "Gympie",
                "url": "http://www.bom.gov.au/fwo/IDQ60801/IDQ60801.94566.json",
                "lat": " -26.18",
                "lon": " 152.64"
            },
            {
                "city": "Hamilton Island",
                "url": "http://www.bom.gov.au/fwo/IDQ60801/IDQ60801.94368.json",
                "lat": " -20.37",
                "lon": " 148.95"
            },
            {
                "city": "Hay Point",
                "url": "http://www.bom.gov.au/fwo/IDQ60801/IDQ60801.99367.json",
                "lat": " -21.29",
                "lon": " 149.30"
            },
            {
                "city": "Heron Island",
                "url": "http://www.bom.gov.au/fwo/IDQ60801/IDQ60801.94386.json",
                "lat": " -23.44",
                "lon": " 151.91"
            },
            {
                "city": "Hervey Bay",
                "url": "http://www.bom.gov.au/fwo/IDQ60801/IDQ60801.95565.json",
                "lat": " -25.32",
                "lon": " 152.88"
            },
            {
                "city": "Holmes Reef",
                "url": "http://www.bom.gov.au/fwo/IDQ60801/IDQ60801.94289.json",
                "lat": " -16.47",
                "lon": " 147.87"
            },
            {
                "city": "Horn Island",
                "url": "http://www.bom.gov.au/fwo/IDQ60801/IDQ60801.94174.json",
                "lat": " -10.58",
                "lon": " 142.29"
            },
            {
                "city": "Hughenden",
                "url": "http://www.bom.gov.au/fwo/IDQ60801/IDQ60801.94343.json",
                "lat": " -20.82",
                "lon": " 144.23"
            },
            {
                "city": "Ingham",
                "url": "http://www.bom.gov.au/fwo/IDQ60801/IDQ60801.95291.json",
                "lat": " -18.65",
                "lon": " 146.18"
            },
            {
                "city": "Inner Beacon",
                "url": "http://www.bom.gov.au/fwo/IDQ60801/IDQ60801.94590.json",
                "lat": " -27.26",
                "lon": " 153.24"
            },
            {
                "city": "Innisfail",
                "url": "http://www.bom.gov.au/fwo/IDQ60801/IDQ60801.94291.json",
                "lat": " -17.52",
                "lon": " 146.03"
            },
            {
                "city": "Isisford",
                "url": "http://www.bom.gov.au/fwo/IDQ60801/IDQ60801.94345.json",
                "lat": " -24.26",
                "lon": " 144.44"
            },
            {
                "city": "Jimna",
                "url": "http://www.bom.gov.au/fwo/IDQ60801/IDQ60801.94557.json",
                "lat": " -26.66",
                "lon": " 152.46"
            },
            {
                "city": "Julia Creek",
                "url": "http://www.bom.gov.au/fwo/IDQ60801/IDQ60801.94337.json",
                "lat": " -20.67",
                "lon": " 141.72"
            },
            {
                "city": "Kingaroy",
                "url": "http://www.bom.gov.au/fwo/IDQ60801/IDQ60801.94549.json",
                "lat": " -26.57",
                "lon": " 151.84"
            },
            {
                "city": "Kowanyama",
                "url": "http://www.bom.gov.au/fwo/IDQ60801/IDQ60801.94268.json",
                "lat": " -15.48",
                "lon": " 141.75"
            },
            {
                "city": "Lady Elliot Island",
                "url": "http://www.bom.gov.au/fwo/IDQ60801/IDQ60801.94388.json",
                "lat": " -24.11",
                "lon": " 152.72"
            },
            {
                "city": "Lake Julius",
                "url": "http://www.bom.gov.au/fwo/IDQ60801/IDQ60801.94348.json",
                "lat": " -20.12",
                "lon": " 139.73"
            },
            {
                "city": "Lihou Reef Lighthouse",
                "url": "http://www.bom.gov.au/fwo/IDQ60801/IDQ60801.94293.json",
                "lat": " -17.13",
                "lon": " 152.15"
            },
            {
                "city": "Lochington",
                "url": "http://www.bom.gov.au/fwo/IDQ60801/IDQ60801.94399.json",
                "lat": " -23.94",
                "lon": " 147.53"
            },
            {
                "city": "Lockhart River",
                "url": "http://www.bom.gov.au/fwo/IDQ60801/IDQ60801.94186.json",
                "lat": " -12.79",
                "lon": " 143.30"
            },
            {
                "city": "Logan City",
                "url": "http://www.bom.gov.au/fwo/IDQ60801/IDQ60801.95581.json",
                "lat": " -27.68",
                "lon": " 153.19"
            },
            {
                "city": "Longreach",
                "url": "http://www.bom.gov.au/fwo/IDQ60801/IDQ60801.94346.json",
                "lat": " -23.44",
                "lon": " 144.28"
            },
            {
                "city": "Low Isles",
                "url": "http://www.bom.gov.au/fwo/IDQ60801/IDQ60801.94285.json",
                "lat": " -16.38",
                "lon": " 145.56"
            },
            {
                "city": "Lucinda",
                "url": "http://www.bom.gov.au/fwo/IDQ60801/IDQ60801.94295.json",
                "lat": " -18.52",
                "lon": " 146.39"
            },
            {
                "city": "Mackay Airport",
                "url": "http://www.bom.gov.au/fwo/IDQ60801/IDQ60801.95367.json",
                "lat": " -21.17",
                "lon": " 149.18"
            },
            {
                "city": "Mackay",
                "url": "http://www.bom.gov.au/fwo/IDQ60801/IDQ60801.94367.json",
                "lat": " -21.12",
                "lon": " 149.22"
            },
            {
                "city": "Maleny",
                "url": "http://www.bom.gov.au/fwo/IDQ60801/IDQ60801.94547.json",
                "lat": " -26.75",
                "lon": " 152.85"
            },
            {
                "city": "Mareeba",
                "url": "http://www.bom.gov.au/fwo/IDQ60801/IDQ60801.95286.json",
                "lat": " -17.07",
                "lon": " 145.43"
            },
            {
                "city": "Marion Reef",
                "url": "http://www.bom.gov.au/fwo/IDQ60801/IDQ60801.94298.json",
                "lat": " -19.10",
                "lon": " 152.39"
            },
            {
                "city": "Maroochydore",
                "url": "http://www.bom.gov.au/fwo/IDQ60801/IDQ60801.94569.json",
                "lat": " -26.60",
                "lon": " 153.09"
            },
            {
                "city": "Maryborough",
                "url": "http://www.bom.gov.au/fwo/IDQ60801/IDQ60801.94567.json",
                "lat": " -25.51",
                "lon": " 152.72"
            },
            {
                "city": "Middle Percy Island",
                "url": "http://www.bom.gov.au/fwo/IDQ60801/IDQ60801.94372.json",
                "lat": " -21.66",
                "lon": " 150.27"
            },
            {
                "city": "Miles",
                "url": "http://www.bom.gov.au/fwo/IDQ60801/IDQ60801.95529.json",
                "lat": " -26.66",
                "lon": " 150.18"
            },
            {
                "city": "Mitchell",
                "url": "http://www.bom.gov.au/fwo/IDQ60801/IDQ60801.94514.json",
                "lat": " -26.49",
                "lon": " 147.98"
            },
            {
                "city": "Monto Township",
                "url": "http://www.bom.gov.au/fwo/IDQ60801/IDQ60801.94377.json",
                "lat": " -24.86",
                "lon": " 151.12"
            },
            {
                "city": "Moranbah Airport",
                "url": "http://www.bom.gov.au/fwo/IDQ60801/IDQ60801.94397.json",
                "lat": " -22.06",
                "lon": " 148.08"
            },
            {
                "city": "Mornington Island Airport",
                "url": "http://www.bom.gov.au/fwo/IDQ60801/IDQ60801.94254.json",
                "lat": " -16.66",
                "lon": " 139.17"
            },
            {
                "city": "Mount Isa",
                "url": "http://www.bom.gov.au/fwo/IDQ60801/IDQ60801.94332.json",
                "lat": " -20.68",
                "lon": " 139.49"
            },
            {
                "city": "Nambour",
                "url": "http://www.bom.gov.au/fwo/IDQ60801/IDQ60801.95572.json",
                "lat": " -26.64",
                "lon": " 152.94"
            },
            {
                "city": "New May Downs",
                "url": "http://www.bom.gov.au/fwo/IDQ60801/IDQ60801.94349.json",
                "lat": " -20.59",
                "lon": " 139.34"
            },
            {
                "city": "Normanton",
                "url": "http://www.bom.gov.au/fwo/IDQ60801/IDQ60801.94266.json",
                "lat": " -17.69",
                "lon": " 141.07"
            },
            {
                "city": "Oakey",
                "url": "http://www.bom.gov.au/fwo/IDQ60801/IDQ60801.94552.json",
                "lat": " -27.40",
                "lon": " 151.74"
            },
            {
                "city": "Palmerville",
                "url": "http://www.bom.gov.au/fwo/IDQ60801/IDQ60801.94276.json",
                "lat": " -16.00",
                "lon": " 144.08"
            },
            {
                "city": "Point Lookout",
                "url": "http://www.bom.gov.au/fwo/IDQ60801/IDQ60801.94593.json",
                "lat": " -27.44",
                "lon": " 153.55"
            },
            {
                "city": "PORTABLE QFRH",
                "url": "http://www.bom.gov.au/fwo/IDQ60801/IDQ60801.99117.json",
                "lat": " -16.91",
                "lon": " 145.75"
            },
            {
                "city": "Proserpine",
                "url": "http://www.bom.gov.au/fwo/IDQ60801/IDQ60801.94365.json",
                "lat": " -20.49",
                "lon": " 148.56"
            },
            {
                "city": "Rainbow Beach",
                "url": "http://www.bom.gov.au/fwo/IDQ60801/IDQ60801.94564.json",
                "lat": " -25.90",
                "lon": " 153.09"
            },
            {
                "city": "Redcliffe",
                "url": "http://www.bom.gov.au/fwo/IDQ60801/IDQ60801.95591.json",
                "lat": " -27.22",
                "lon": " 153.09"
            },
            {
                "city": "Redland Alexandra Hills",
                "url": "http://www.bom.gov.au/fwo/IDQ60801/IDQ60801.94561.json",
                "lat": " -27.54",
                "lon": " 153.24"
            },
            {
                "city": "Richmond",
                "url": "http://www.bom.gov.au/fwo/IDQ60801/IDQ60801.94341.json",
                "lat": " -20.70",
                "lon": " 143.12"
            },
            {
                "city": "Rockhampton",
                "url": "http://www.bom.gov.au/fwo/IDQ60801/IDQ60801.94374.json",
                "lat": " -23.38",
                "lon": " 150.48"
            },
            {
                "city": "Roma",
                "url": "http://www.bom.gov.au/fwo/IDQ60801/IDQ60801.94515.json",
                "lat": " -26.55",
                "lon": " 148.77"
            },
            {
                "city": "Rosslyn Bay Harbour",
                "url": "http://www.bom.gov.au/fwo/IDQ60801/IDQ60801.95298.json",
                "lat": " -23.16",
                "lon": " 150.79"
            },
            {
                "city": "Rundle Island",
                "url": "http://www.bom.gov.au/fwo/IDQ60801/IDQ60801.94378.json",
                "lat": " -23.53",
                "lon": " 151.28"
            },
            {
                "city": "Samuel Hill",
                "url": "http://www.bom.gov.au/fwo/IDQ60801/IDQ60801.94370.json",
                "lat": " -22.74",
                "lon": " 150.66"
            },
            {
                "city": "Sandy Cape",
                "url": "http://www.bom.gov.au/fwo/IDQ60801/IDQ60801.94390.json",
                "lat": " -24.73",
                "lon": " 153.21"
            },
            {
                "city": "Scherger",
                "url": "http://www.bom.gov.au/fwo/IDQ60801/IDQ60801.94171.json",
                "lat": " -12.62",
                "lon": " 142.09"
            },
            {
                "city": "Seventeen Seventy",
                "url": "http://www.bom.gov.au/fwo/IDQ60801/IDQ60801.94384.json",
                "lat": " -24.16",
                "lon": " 151.89"
            },
            {
                "city": "South Johnstone",
                "url": "http://www.bom.gov.au/fwo/IDQ60801/IDQ60801.95292.json",
                "lat": " -17.61",
                "lon": " 146.00"
            },
            {
                "city": "Spitfire Channel",
                "url": "http://www.bom.gov.au/fwo/IDQ60801/IDQ60801.94581.json",
                "lat": " -27.05",
                "lon": " 153.27"
            },
            {
                "city": "Springsure",
                "url": "http://www.bom.gov.au/fwo/IDQ60801/IDQ60801.95362.json",
                "lat": " -24.12",
                "lon": " 148.09"
            },
            {
                "city": "St George",
                "url": "http://www.bom.gov.au/fwo/IDQ60801/IDQ60801.94517.json",
                "lat": " -28.05",
                "lon": " 148.59"
            },
            {
                "city": "St Lawrence",
                "url": "http://www.bom.gov.au/fwo/IDQ60801/IDQ60801.95369.json",
                "lat": " -22.35",
                "lon": " 149.52"
            },
            {
                "city": "Stanthorpe",
                "url": "http://www.bom.gov.au/fwo/IDQ60801/IDQ60801.94550.json",
                "lat": " -28.66",
                "lon": " 151.93"
            },
            {
                "city": "Surat",
                "url": "http://www.bom.gov.au/fwo/IDQ60801/IDQ60801.94521.json",
                "lat": " -27.16",
                "lon": " 149.07"
            },
            {
                "city": "Sweers Island",
                "url": "http://www.bom.gov.au/fwo/IDQ60801/IDQ60801.94257.json",
                "lat": " -17.11",
                "lon": " 139.60"
            },
            {
                "city": "Tambo",
                "url": "http://www.bom.gov.au/fwo/IDQ60801/IDQ60801.94355.json",
                "lat": " -24.88",
                "lon": " 146.26"
            },
            {
                "city": "Taroom",
                "url": "http://www.bom.gov.au/fwo/IDQ60801/IDQ60801.94525.json",
                "lat": " -25.64",
                "lon": " 149.80"
            },
            {
                "city": "Tewantin",
                "url": "http://www.bom.gov.au/fwo/IDQ60801/IDQ60801.94570.json",
                "lat": " -26.39",
                "lon": " 153.04"
            },
            {
                "city": "Texas",
                "url": "http://www.bom.gov.au/fwo/IDQ60801/IDQ60801.95533.json",
                "lat": " -28.85",
                "lon": " 151.17"
            },
            {
                "city": "Thargomindah",
                "url": "http://www.bom.gov.au/fwo/IDQ60801/IDQ60801.95492.json",
                "lat": " -27.99",
                "lon": " 143.81"
            },
            {
                "city": "The Monument",
                "url": "http://www.bom.gov.au/fwo/IDQ60801/IDQ60801.94336.json",
                "lat": " -21.81",
                "lon": " 139.93"
            },
            {
                "city": "Toowoomba",
                "url": "http://www.bom.gov.au/fwo/IDQ60801/IDQ60801.95551.json",
                "lat": " -27.54",
                "lon": " 151.91"
            },
            {
                "city": "Townsville",
                "url": "http://www.bom.gov.au/fwo/IDQ60801/IDQ60801.94294.json",
                "lat": " -19.25",
                "lon": " 146.77"
            },
            {
                "city": "Trepell",
                "url": "http://www.bom.gov.au/fwo/IDQ60801/IDQ60801.94338.json",
                "lat": " -21.84",
                "lon": " 140.89"
            },
            {
                "city": "Urandangi",
                "url": "http://www.bom.gov.au/fwo/IDQ60801/IDQ60801.94344.json",
                "lat": " -21.60",
                "lon": " 138.37"
            },
            {
                "city": "Warwick",
                "url": "http://www.bom.gov.au/fwo/IDQ60801/IDQ60801.94555.json",
                "lat": " -28.21",
                "lon": " 152.10"
            },
            {
                "city": "Weipa",
                "url": "http://www.bom.gov.au/fwo/IDQ60801/IDQ60801.94170.json",
                "lat": " -12.68",
                "lon": " 141.92"
            },
            {
                "city": "Williamson",
                "url": "http://www.bom.gov.au/fwo/IDQ60801/IDQ60801.95370.json",
                "lat": " -22.47",
                "lon": " 150.18"
            },
            {
                "city": "Willis Island",
                "url": "http://www.bom.gov.au/fwo/IDQ60801/IDQ60801.94299.json",
                "lat": " -16.29",
                "lon": " 149.97"
            },
            {
                "city": "Winton",
                "url": "http://www.bom.gov.au/fwo/IDQ60801/IDQ60801.94342.json",
                "lat": " -22.36",
                "lon": " 143.08"
            },
            {
                "city": "Woolshed",
                "url": "http://www.bom.gov.au/fwo/IDQ60801/IDQ60801.95293.json",
                "lat": " -19.42",
                "lon": " 146.54"
            },
            {
                "city": "Yeppoon",
                "url": "http://www.bom.gov.au/fwo/IDQ60801/IDQ60801.94373.json",
                "lat": " -23.14",
                "lon": " 150.75"
            }
        ]
    },
    {
        "state": "South Australia",
        "stations": [
            {
                "city": "Adelaide Airport",
                "url": "http://www.bom.gov.au/fwo/IDS60801/IDS60801.94672.json",
                "lat": " -34.95",
                "lon": " 138.52"
            },
            {
                "city": "Adelaide",
                "url": "http://www.bom.gov.au/fwo/IDS60801/IDS60801.94675.json",
                "lat": " -34.92",
                "lon": " 138.62"
            },
            {
                "city": "Andamooka",
                "url": "http://www.bom.gov.au/fwo/IDS60801/IDS60801.95660.json",
                "lat": " -30.45",
                "lon": " 137.17"
            },
            {
                "city": "Arkaroola",
                "url": "http://www.bom.gov.au/fwo/IDS60801/IDS60801.94676.json",
                "lat": " -30.31",
                "lon": " 139.34"
            },
            {
                "city": "Cape Borda",
                "url": "http://www.bom.gov.au/fwo/IDS60801/IDS60801.95805.json",
                "lat": " -35.75",
                "lon": " 136.60"
            },
            {
                "city": "Cape Jaffa",
                "url": "http://www.bom.gov.au/fwo/IDS60801/IDS60801.94813.json",
                "lat": " -36.97",
                "lon": " 139.72"
            },
            {
                "city": "Cape Willoughby",
                "url": "http://www.bom.gov.au/fwo/IDS60801/IDS60801.94822.json",
                "lat": " -35.84",
                "lon": " 138.13"
            },
            {
                "city": "Ceduna",
                "url": "http://www.bom.gov.au/fwo/IDS60801/IDS60801.94653.json",
                "lat": " -32.13",
                "lon": " 133.70"
            },
            {
                "city": "Clare",
                "url": "http://www.bom.gov.au/fwo/IDS60801/IDS60801.95667.json",
                "lat": " -33.82",
                "lon": " 138.59"
            },
            {
                "city": "Cleve Airport",
                "url": "http://www.bom.gov.au/fwo/IDS60801/IDS60801.94662.json",
                "lat": " -33.71",
                "lon": " 136.50"
            },
            {
                "city": "Cleve",
                "url": "http://www.bom.gov.au/fwo/IDS60801/IDS60801.94661.json",
                "lat": " -33.70",
                "lon": " 136.49"
            },
            {
                "city": "Coles Point",
                "url": "http://www.bom.gov.au/fwo/IDS60801/IDS60801.94658.json",
                "lat": " -34.37",
                "lon": " 135.37"
            },
            {
                "city": "Coober Pedy Airport",
                "url": "http://www.bom.gov.au/fwo/IDS60801/IDS60801.95458.json",
                "lat": " -29.03",
                "lon": " 134.72"
            },
            {
                "city": "Coonawarra",
                "url": "http://www.bom.gov.au/fwo/IDS60801/IDS60801.94817.json",
                "lat": " -37.29",
                "lon": " 140.83"
            },
            {
                "city": "Cummins Airport",
                "url": "http://www.bom.gov.au/fwo/IDS60801/IDS60801.95663.json",
                "lat": " -34.25",
                "lon": " 135.71"
            },
            {
                "city": "Edinburgh",
                "url": "http://www.bom.gov.au/fwo/IDS60801/IDS60801.95676.json",
                "lat": " -34.71",
                "lon": " 138.62"
            },
            {
                "city": "Edithburgh",
                "url": "http://www.bom.gov.au/fwo/IDS60801/IDS60801.94809.json",
                "lat": " -35.11",
                "lon": " 137.74"
            },
            {
                "city": "Elliston",
                "url": "http://www.bom.gov.au/fwo/IDS60801/IDS60801.94656.json",
                "lat": " -33.65",
                "lon": " 134.89"
            },
            {
                "city": "ErnabellaPukatja",
                "url": "http://www.bom.gov.au/fwo/IDS60801/IDS60801.94474.json",
                "lat": " -26.26",
                "lon": " 132.18"
            },
            {
                "city": "Eudunda",
                "url": "http://www.bom.gov.au/fwo/IDS60801/IDS60801.94680.json",
                "lat": " -34.18",
                "lon": " 139.08"
            },
            {
                "city": "Gluepot",
                "url": "http://www.bom.gov.au/fwo/IDS60801/IDS60801.95668.json",
                "lat": " -33.76",
                "lon": " 140.13"
            },
            {
                "city": "Hawker",
                "url": "http://www.bom.gov.au/fwo/IDS60801/IDS60801.94673.json",
                "lat": " -31.88",
                "lon": " 138.44"
            },
            {
                "city": "Hindmarsh Island",
                "url": "http://www.bom.gov.au/fwo/IDS60801/IDS60801.94677.json",
                "lat": " -35.52",
                "lon": " 138.82"
            },
            {
                "city": "Kadina",
                "url": "http://www.bom.gov.au/fwo/IDS60801/IDS60801.94685.json",
                "lat": " -33.97",
                "lon": " 137.66"
            },
            {
                "city": "Karoonda",
                "url": "http://www.bom.gov.au/fwo/IDS60801/IDS60801.95813.json",
                "lat": " -35.09",
                "lon": " 139.90"
            },
            {
                "city": "Keith West",
                "url": "http://www.bom.gov.au/fwo/IDS60801/IDS60801.95815.json",
                "lat": " -36.11",
                "lon": " 140.33"
            },
            {
                "city": "Keith",
                "url": "http://www.bom.gov.au/fwo/IDS60801/IDS60801.94816.json",
                "lat": " -36.10",
                "lon": " 140.36"
            },
            {
                "city": "Kimba",
                "url": "http://www.bom.gov.au/fwo/IDS60801/IDS60801.94668.json",
                "lat": " -33.14",
                "lon": " 136.41"
            },
            {
                "city": "Kingscote",
                "url": "http://www.bom.gov.au/fwo/IDS60801/IDS60801.95807.json",
                "lat": " -35.71",
                "lon": " 137.52"
            },
            {
                "city": "Kuitpo",
                "url": "http://www.bom.gov.au/fwo/IDS60801/IDS60801.94683.json",
                "lat": " -35.17",
                "lon": " 138.68"
            },
            {
                "city": "Kyancutta",
                "url": "http://www.bom.gov.au/fwo/IDS60801/IDS60801.94657.json",
                "lat": " -33.13",
                "lon": " 135.55"
            },
            {
                "city": "Lameroo AWS",
                "url": "http://www.bom.gov.au/fwo/IDS60801/IDS60801.94690.json",
                "lat": " -35.38",
                "lon": " 140.54"
            },
            {
                "city": "Leigh Creek",
                "url": "http://www.bom.gov.au/fwo/IDS60801/IDS60801.94674.json",
                "lat": " -30.60",
                "lon": " 138.42"
            },
            {
                "city": "Loxton",
                "url": "http://www.bom.gov.au/fwo/IDS60801/IDS60801.94682.json",
                "lat": " -34.44",
                "lon": " 140.60"
            },
            {
                "city": "Maitland",
                "url": "http://www.bom.gov.au/fwo/IDS60801/IDS60801.94665.json",
                "lat": " -34.37",
                "lon": " 137.67"
            },
            {
                "city": "Marree Airport",
                "url": "http://www.bom.gov.au/fwo/IDS60801/IDS60801.95480.json",
                "lat": " -29.66",
                "lon": " 138.07"
            },
            {
                "city": "Meningie",
                "url": "http://www.bom.gov.au/fwo/IDS60801/IDS60801.95814.json",
                "lat": " -35.69",
                "lon": " 139.34"
            },
            {
                "city": "Minlaton Airport",
                "url": "http://www.bom.gov.au/fwo/IDS60801/IDS60801.95659.json",
                "lat": " -34.75",
                "lon": " 137.53"
            },
            {
                "city": "Minnipa RS",
                "url": "http://www.bom.gov.au/fwo/IDS60801/IDS60801.95662.json",
                "lat": " -32.84",
                "lon": " 135.15"
            },
            {
                "city": "Moomba Airport",
                "url": "http://www.bom.gov.au/fwo/IDS60801/IDS60801.95481.json",
                "lat": " -28.10",
                "lon": " 140.20"
            },
            {
                "city": "Mount Barker",
                "url": "http://www.bom.gov.au/fwo/IDS60801/IDS60801.94806.json",
                "lat": " -35.07",
                "lon": " 138.85"
            },
            {
                "city": "Mount Crawford",
                "url": "http://www.bom.gov.au/fwo/IDS60801/IDS60801.94678.json",
                "lat": " -34.73",
                "lon": " 138.93"
            },
            {
                "city": "Mount Gambier",
                "url": "http://www.bom.gov.au/fwo/IDS60801/IDS60801.94821.json",
                "lat": " -37.75",
                "lon": " 140.77"
            },
            {
                "city": "Mount Lofty",
                "url": "http://www.bom.gov.au/fwo/IDS60801/IDS60801.95678.json",
                "lat": " -34.98",
                "lon": " 138.71"
            },
            {
                "city": "Murray Bridge",
                "url": "http://www.bom.gov.au/fwo/IDS60801/IDS60801.95812.json",
                "lat": " -35.12",
                "lon": " 139.26"
            },
            {
                "city": "Naracoorte",
                "url": "http://www.bom.gov.au/fwo/IDS60801/IDS60801.94820.json",
                "lat": " -36.98",
                "lon": " 140.73"
            },
            {
                "city": "Neptune Island",
                "url": "http://www.bom.gov.au/fwo/IDS60801/IDS60801.94804.json",
                "lat": " -35.34",
                "lon": " 136.12"
            },
            {
                "city": "Noarlunga",
                "url": "http://www.bom.gov.au/fwo/IDS60801/IDS60801.94808.json",
                "lat": " -35.16",
                "lon": " 138.51"
            },
            {
                "city": "Nullarbor",
                "url": "http://www.bom.gov.au/fwo/IDS60801/IDS60801.94651.json",
                "lat": " -31.45",
                "lon": " 130.90"
            },